[
  {
    "date": "2025-08-29 0:00:00",
    "company": "BNSF",
    "location": "Barstow, CA",
    "Yard": "Barstow, CA",
    "lat": 34.8957957,
    "lng": -117.0172826,
    "dwell_time": 24.8,
    "Average": 33.77142857,
    "indicator": -1.769695565,
    "congestion_level": "Low"
  },
  {
    "date": "2025-08-29 0:00:00",
    "company": "BNSF",
    "location": "Denver, CO",
    "Yard": "Denver, CO",
    "lat": 39.7392358,
    "lng": -104.990251,
    "dwell_time": 28.6,
    "Average": 32.78979592,
    "indicator": -1.024351441,
    "congestion_level": "Low"
  },
  {
    "date": "2025-08-29 0:00:00",
    "company": "BNSF",
    "location": "Fort Worth, TX",
    "Yard": "Fort Worth, TX",
    "lat": 32.7554883,
    "lng": -97.3307658,
    "dwell_time": 25.6,
    "Average": 27.16326531,
    "indicator": -0.2523959137,
    "congestion_level": "Average"
  },
  {
    "date": "2025-08-29 0:00:00",
    "company": "BNSF",
    "location": "Galesburg, IL",
    "Yard": "Galesburg, IL",
    "lat": 40.9478158,
    "lng": -90.3712395,
    "dwell_time": 26.9,
    "Average": 33.14081633,
    "indicator": -1.543750353,
    "congestion_level": "Low"
  },
  {
    "date": "2025-08-29 0:00:00",
    "company": "BNSF",
    "location": "Kansas City, KS",
    "Yard": "Kansas City, KS",
    "lat": 39.0997265,
    "lng": -94.5785667,
    "dwell_time": 27.3,
    "Average": 33.04081633,
    "indicator": -1.101739727,
    "congestion_level": "Low"
  },
  {
    "date": "2025-08-29 0:00:00",
    "company": "BNSF",
    "location": "Lincoln, NE",
    "Yard": "Lincoln, NE",
    "lat": 40.813616,
    "lng": -96.7025955,
    "dwell_time": 23.9,
    "Average": 29.02244898,
    "indicator": -1.532156594,
    "congestion_level": "Low"
  },
  {
    "date": "2025-08-29 0:00:00",
    "company": "BNSF",
    "location": "Memphis, TN",
    "Yard": "Memphis, TN",
    "lat": 35.1495343,
    "lng": -90.0489801,
    "dwell_time": 15.7,
    "Average": 17.97755102,
    "indicator": -0.8384191743,
    "congestion_level": "Average"
  },
  {
    "date": "2025-08-29 0:00:00",
    "company": "BNSF",
    "location": "Northtown, MN",
    "Yard": "Northtown, MN",
    "lat": 45.128403,
    "lng": -93.259694,
    "dwell_time": 33.9,
    "Average": 31.24081633,
    "indicator": 0.6931671344,
    "congestion_level": "Average"
  },
  {
    "date": "2025-08-29 0:00:00",
    "company": "BNSF",
    "location": "Pasco, WA",
    "Yard": "Pasco, WA",
    "lat": 46.2305049,
    "lng": -119.0922316,
    "dwell_time": 22.3,
    "Average": 29.12653061,
    "indicator": -1.394322058,
    "congestion_level": "Low"
  },
  {
    "date": "2025-08-29 0:00:00",
    "company": "BNSF",
    "location": "Tulsa, OK",
    "Yard": "Tulsa, OK",
    "lat": 36.1539816,
    "lng": -95.992775,
    "dwell_time": 23.2,
    "Average": 25.94285714,
    "indicator": -0.7386199873,
    "congestion_level": "Average"
  },
  {
    "date": "2025-08-29 0:00:00",
    "company": "CN",
    "location": "Baton Rouge, LA",
    "Yard": "Baton Rouge, LA",
    "lat": 30.4514677,
    "lng": -91.1871466,
    "dwell_time": 19.04,
    "Average": 15.01102041,
    "indicator": 1.275599872,
    "congestion_level": "High"
  },
  {
    "date": "2025-08-29 0:00:00",
    "company": "CN",
    "location": "Champaign, IL",
    "Yard": "Champaign, IL",
    "lat": 40.1164204,
    "lng": -88.2433829,
    "dwell_time": 12.61,
    "Average": 18.94428571,
    "indicator": -1.372519455,
    "congestion_level": "Low"
  },
  {
    "date": "2025-08-29 0:00:00",
    "company": "CN",
    "location": "Fond Du Lac, WI",
    "Yard": "Fond Du Lac, WI",
    "lat": 43.7730448,
    "lng": -88.4470508,
    "dwell_time": 24.03,
    "Average": 21.53142857,
    "indicator": 0.6360523442,
    "congestion_level": "Average"
  },
  {
    "date": "2025-08-29 0:00:00",
    "company": "CN",
    "location": "Geismar, LA",
    "Yard": "Geismar, LA",
    "lat": 30.2193468,
    "lng": -91.0065088,
    "dwell_time": 17.35,
    "Average": 14.74367347,
    "indicator": 1.293319832,
    "congestion_level": "High"
  },
  {
    "date": "2025-08-29 0:00:00",
    "company": "CN",
    "location": "Jackson, MS",
    "Yard": "Jackson, MS",
    "lat": 32.2987573,
    "lng": -90.1848103,
    "dwell_time": 14.07,
    "Average": 12.06816327,
    "indicator": 1.116437972,
    "congestion_level": "High"
  },
  {
    "date": "2025-08-29 0:00:00",
    "company": "CN",
    "location": "Gary, IN",
    "Yard": "Gary, IN",
    "lat": 41.5933696,
    "lng": -87.3464271,
    "dwell_time": 23.19,
    "Average": 23.47632653,
    "indicator": -0.09321789656,
    "congestion_level": "Average"
  },
  {
    "date": "2025-08-29 0:00:00",
    "company": "CN",
    "location": "Markham, ON",
    "Yard": "Markham, ON",
    "lat": 43.8561002,
    "lng": -79.3370188,
    "dwell_time": 11.9,
    "Average": 11.6077551,
    "indicator": 0.1070857813,
    "congestion_level": "Average"
  },
  {
    "date": "2025-08-29 0:00:00",
    "company": "CN",
    "location": "Memphis, TN",
    "Yard": "Memphis, TN",
    "lat": 35.1495343,
    "lng": -90.0489801,
    "dwell_time": 22.31,
    "Average": 21.41693878,
    "indicator": 0.3273091105,
    "congestion_level": "Average"
  },
  {
    "date": "2025-08-29 0:00:00",
    "company": "CN",
    "location": "Proctor, MN",
    "Yard": "Proctor, MN",
    "lat": 46.7471638,
    "lng": -92.2254695,
    "dwell_time": 8.97,
    "Average": 9.850816327,
    "indicator": -0.4096170642,
    "congestion_level": "Average"
  },
  {
    "date": "2025-08-29 0:00:00",
    "company": "CN",
    "location": "Stevens Point, WI",
    "Yard": "Stevens Point, WI",
    "lat": 44.5235792,
    "lng": -89.574563,
    "dwell_time": 20.23,
    "Average": 21.59816327,
    "indicator": -0.46422538,
    "congestion_level": "Average"
  },
  {
    "date": "2025-08-29 0:00:00",
    "company": "CPKC",
    "location": "Bensenville, IL",
    "Yard": "Bensenville, IL",
    "lat": 41.9550296,
    "lng": -87.9400657,
    "dwell_time": 30.14,
    "Average": 30.4425,
    "indicator": -0.148016173,
    "congestion_level": "Average"
  },
  {
    "date": "2025-08-29 0:00:00",
    "company": "CPKC",
    "location": "Harvey, ND",
    "Yard": "Harvey, ND",
    "lat": 47.769723,
    "lng": -99.935404,
    "dwell_time": 21.4,
    "Average": 23.8675,
    "indicator": -0.3790984956,
    "congestion_level": "Average"
  },
  {
    "date": "2025-08-29 0:00:00",
    "company": "CPKC",
    "location": "Jackson, MS",
    "Yard": "Jackson, MS",
    "lat": 32.2987573,
    "lng": -90.1848103,
    "dwell_time": 26.77,
    "Average": 27.8975,
    "indicator": -1.226443403,
    "congestion_level": "Low"
  },
  {
    "date": "2025-08-29 0:00:00",
    "company": "CPKC",
    "location": "Kansas City, KS",
    "Yard": "Kansas City, KS",
    "lat": 39.0997265,
    "lng": -94.5785667,
    "dwell_time": 17.46,
    "Average": 16.9025,
    "indicator": 0.597419546,
    "congestion_level": "Average"
  },
  {
    "date": "2025-08-29 0:00:00",
    "company": "CPKC",
    "location": "Laredo, TX",
    "Yard": "Laredo, TX",
    "lat": 27.5035613,
    "lng": -99.5075519,
    "dwell_time": 7.7,
    "Average": 8.7875,
    "indicator": -0.464454223,
    "congestion_level": "Average"
  },
  {
    "date": "2025-08-29 0:00:00",
    "company": "CPKC",
    "location": "Meridian, MS",
    "Yard": "Meridian, MS",
    "lat": 32.3610377,
    "lng": -88.6991015,
    "dwell_time": 3.62,
    "Average": 6.465,
    "indicator": -1.470793351,
    "congestion_level": "Low"
  },
  {
    "date": "2025-08-29 0:00:00",
    "company": "CPKC",
    "location": "Nahant, IA",
    "Yard": "Nahant, IA",
    "lat": 41.4875323,
    "lng": -90.6379164,
    "dwell_time": 38.25,
    "Average": 33.235,
    "indicator": 1.110839835,
    "congestion_level": "High"
  },
  {
    "date": "2025-08-29 0:00:00",
    "company": "CPKC",
    "location": "New Orleans, LA",
    "Yard": "New Orleans, LA",
    "lat": 29.9725656,
    "lng": -90.1399969,
    "dwell_time": 11.98,
    "Average": 15.2675,
    "indicator": -1.338704119,
    "congestion_level": "Low"
  },
  {
    "date": "2025-08-29 0:00:00",
    "company": "CPKC",
    "location": "Shreveport, LA",
    "Yard": "Shreveport, LA",
    "lat": 32.5251516,
    "lng": -93.7501789,
    "dwell_time": 47.61,
    "Average": 50.9275,
    "indicator": -0.7837172377,
    "congestion_level": "Average"
  },
  {
    "date": "2025-08-29 0:00:00",
    "company": "CPKC",
    "location": "St. Paul, MN",
    "Yard": "St. Paul, MN",
    "lat": 44.9537029,
    "lng": -93.0899578,
    "dwell_time": 29.05,
    "Average": 27.245,
    "indicator": 1.083015162,
    "congestion_level": "High"
  },
  {
    "date": "2025-08-29 0:00:00",
    "company": "CSX",
    "location": "Baltimore, MD",
    "Yard": "Baltimore, MD",
    "lat": 39.2903848,
    "lng": -76.6121893,
    "dwell_time": 15.29,
    "Average": 16.52580645,
    "indicator": -0.3862341803,
    "congestion_level": "Average"
  },
  {
    "date": "2025-08-29 0:00:00",
    "company": "CSX",
    "location": "Chicago, IL",
    "Yard": "Chicago, IL",
    "lat": 41.8781136,
    "lng": -87.6297982,
    "dwell_time": 13.28,
    "Average": 13.89314286,
    "indicator": -0.2748450509,
    "congestion_level": "Average"
  },
  {
    "date": "2025-08-29 0:00:00",
    "company": "CSX",
    "location": "Cincinnati, OH",
    "Yard": "Cincinnati, OH",
    "lat": 39.1031182,
    "lng": -84.5120196,
    "dwell_time": 23.42,
    "Average": 26.87795918,
    "indicator": -0.8982058108,
    "congestion_level": "Average"
  },
  {
    "date": "2025-08-29 0:00:00",
    "company": "CSX",
    "location": "Indianapolis, IN",
    "Yard": "Indianapolis, IN",
    "lat": 39.768403,
    "lng": -86.158068,
    "dwell_time": 23.28,
    "Average": 29.3144898,
    "indicator": -0.7820653698,
    "congestion_level": "Average"
  },
  {
    "date": "2025-08-29 0:00:00",
    "company": "CSX",
    "location": "Jacksonville, FL",
    "Yard": "Jacksonville, FL",
    "lat": 30.3321838,
    "lng": -81.655651,
    "dwell_time": 19.27,
    "Average": 18.768,
    "indicator": 0.291945868,
    "congestion_level": "Average"
  },
  {
    "date": "2025-08-29 0:00:00",
    "company": "CSX",
    "location": "Louisville, KY",
    "Yard": "Louisville, KY",
    "lat": 38.2526647,
    "lng": -85.7584557,
    "dwell_time": 27.16,
    "Average": 30.06897959,
    "indicator": -0.3444626867,
    "congestion_level": "Average"
  },
  {
    "date": "2025-08-29 0:00:00",
    "company": "CSX",
    "location": "Nashville, TN",
    "Yard": "Nashville, TN",
    "lat": 36.1626638,
    "lng": -86.7816016,
    "dwell_time": 30.03,
    "Average": 31.4222449,
    "indicator": -0.1371819098,
    "congestion_level": "Average"
  },
  {
    "date": "2025-08-29 0:00:00",
    "company": "CSX",
    "location": "Selkirk, NY",
    "Yard": "Selkirk, NY",
    "lat": 42.5319998,
    "lng": -73.7985008,
    "dwell_time": 23.57,
    "Average": 29.6677551,
    "indicator": -0.7925019661,
    "congestion_level": "Average"
  },
  {
    "date": "2025-08-29 0:00:00",
    "company": "CSX",
    "location": "Toledo, OH",
    "Yard": "Toledo, OH",
    "lat": 41.6528052,
    "lng": -83.5378674,
    "dwell_time": 17.49,
    "Average": 31.17734694,
    "indicator": -1.887350101,
    "congestion_level": "Low"
  },
  {
    "date": "2025-08-29 0:00:00",
    "company": "CSX",
    "location": "Waycross, GA",
    "Yard": "Waycross, GA",
    "lat": 31.2135511,
    "lng": -82.3540178,
    "dwell_time": 23.88,
    "Average": 27.08265306,
    "indicator": -0.6100575242,
    "congestion_level": "Average"
  },
  {
    "date": "2025-08-29 0:00:00",
    "company": "NS",
    "location": "Atlanta, GA",
    "Yard": "Atlanta, GA",
    "lat": 33.7489954,
    "lng": -84.3879824,
    "dwell_time": 18.2,
    "Average": 17.4425,
    "indicator": 0.1778242695,
    "congestion_level": "Average"
  },
  {
    "date": "2025-08-29 0:00:00",
    "company": "NS",
    "location": "Bellevue, OH",
    "Yard": "Bellevue, OH",
    "lat": 41.2736647,
    "lng": -82.8415763,
    "dwell_time": 28.7,
    "Average": 29.44081633,
    "indicator": -0.1462680636,
    "congestion_level": "Average"
  },
  {
    "date": "2025-08-29 0:00:00",
    "company": "NS",
    "location": "Birmingham, AL",
    "Yard": "Birmingham, AL",
    "lat": 33.5185892,
    "lng": -86.8103567,
    "dwell_time": 34.0,
    "Average": 30.9244898,
    "indicator": 0.5284096757,
    "congestion_level": "Average"
  },
  {
    "date": "2025-08-29 0:00:00",
    "company": "NS",
    "location": "Chattanooga, TN",
    "Yard": "Chattanooga, TN",
    "lat": 35.0456297,
    "lng": -85.3096801,
    "dwell_time": 27.6,
    "Average": 30.80408163,
    "indicator": -0.4799214471,
    "congestion_level": "Average"
  },
  {
    "date": "2025-08-29 0:00:00",
    "company": "NS",
    "location": "Pittsburgh, PA",
    "Yard": "Pittsburgh, PA",
    "lat": 40.4406248,
    "lng": -79.9958864,
    "dwell_time": 29.7,
    "Average": 27.34285714,
    "indicator": 0.588107616,
    "congestion_level": "Average"
  },
  {
    "date": "2025-08-29 0:00:00",
    "company": "NS",
    "location": "Decatur, IL",
    "Yard": "Decatur, IL",
    "lat": 39.8403147,
    "lng": -88.9548001,
    "dwell_time": 36.6,
    "Average": 25.69387755,
    "indicator": 1.785357664,
    "congestion_level": "High"
  },
  {
    "date": "2025-08-29 0:00:00",
    "company": "NS",
    "location": "Elkhart, IN",
    "Yard": "Elkhart, IN",
    "lat": 41.6819935,
    "lng": -85.9766671,
    "dwell_time": 25.6,
    "Average": 28.17142857,
    "indicator": -0.5901332735,
    "congestion_level": "Average"
  },
  {
    "date": "2025-08-29 0:00:00",
    "company": "NS",
    "location": "Harrisburg, PA",
    "Yard": "Harrisburg, PA",
    "lat": 40.3028161,
    "lng": -76.8928454,
    "dwell_time": 8.6,
    "Average": 12.68148148,
    "indicator": -1.449444269,
    "congestion_level": "Low"
  },
  {
    "date": "2025-08-29 0:00:00",
    "company": "NS",
    "location": "Macon, GA",
    "Yard": "Macon, GA",
    "lat": 32.8406946,
    "lng": -83.6324022,
    "dwell_time": 28.6,
    "Average": 28.56326531,
    "indicator": 0.007967179641,
    "congestion_level": "Average"
  },
  {
    "date": "2025-08-29 0:00:00",
    "company": "NS",
    "location": "Roanoke, VA",
    "Yard": "Roanoke, VA",
    "lat": 37.2739515,
    "lng": -79.9510329,
    "dwell_time": 36.9,
    "Average": 29.70740741,
    "indicator": 1.062045716,
    "congestion_level": "High"
  },
  {
    "date": "2025-08-29 0:00:00",
    "company": "UP",
    "location": "Proviso, IL",
    "Yard": "Proviso, IL",
    "lat": 41.8653429,
    "lng": -87.8721439,
    "dwell_time": 22.8,
    "Average": 26.79795918,
    "indicator": -0.7654869056,
    "congestion_level": "Average"
  },
  {
    "date": "2025-08-29 0:00:00",
    "company": "UP",
    "location": "Fort Worth, TX",
    "Yard": "Fort Worth, TX",
    "lat": 32.7554883,
    "lng": -97.3307658,
    "dwell_time": 19.7,
    "Average": 25.97959184,
    "indicator": -1.216874814,
    "congestion_level": "Low"
  },
  {
    "date": "2025-08-29 0:00:00",
    "company": "UP",
    "location": "Englewood, TX",
    "Yard": "Englewood, TX",
    "lat": 29.7983826,
    "lng": -95.3079662,
    "dwell_time": 19.6,
    "Average": 27.74285714,
    "indicator": -0.9780195556,
    "congestion_level": "Average"
  },
  {
    "date": "2025-08-29 0:00:00",
    "company": "UP",
    "location": "Livonia, LA",
    "Yard": "Livonia, LA",
    "lat": 30.5590803,
    "lng": -91.555945,
    "dwell_time": 20.1,
    "Average": 27.43061224,
    "indicator": -1.713265691,
    "congestion_level": "Low"
  },
  {
    "date": "2025-08-29 0:00:00",
    "company": "UP",
    "location": "North Little Rock, AR",
    "Yard": "North Little Rock, AR",
    "lat": 34.769536,
    "lng": -92.2670941,
    "dwell_time": 23.2,
    "Average": 25.23877551,
    "indicator": -0.5094497164,
    "congestion_level": "Average"
  },
  {
    "date": "2025-08-29 0:00:00",
    "company": "UP",
    "location": "North Platte West, NE",
    "Yard": "North Platte West, NE",
    "lat": 41.1402759,
    "lng": -100.7601454,
    "dwell_time": 19.1,
    "Average": 28.79183673,
    "indicator": -1.904056965,
    "congestion_level": "Low"
  },
  {
    "date": "2025-08-29 0:00:00",
    "company": "UP",
    "location": "Pine Bluff, AR",
    "Yard": "Pine Bluff, AR",
    "lat": 34.2284312,
    "lng": -92.0031955,
    "dwell_time": 25.7,
    "Average": 27.65102041,
    "indicator": -0.6825038963,
    "congestion_level": "Average"
  },
  {
    "date": "2025-08-29 0:00:00",
    "company": "UP",
    "location": "Roseville, CA",
    "Yard": "Roseville, CA",
    "lat": 38.7521235,
    "lng": -121.2880059,
    "dwell_time": 20.2,
    "Average": 27.67959184,
    "indicator": -1.217919245,
    "congestion_level": "Low"
  },
  {
    "date": "2025-08-29 0:00:00",
    "company": "UP",
    "location": "Anthony, NM",
    "Yard": "Anthony, NM",
    "lat": 31.90796865,
    "lng": -106.7478105,
    "dwell_time": 24.8,
    "Average": 21.40869565,
    "indicator": 0.8277763174,
    "congestion_level": "Average"
  },
  {
    "date": "2025-08-29 0:00:00",
    "company": "UP",
    "location": "West Colton, CA",
    "Yard": "West Colton, CA",
    "lat": 34.0669931,
    "lng": -117.3529857,
    "dwell_time": 19.8,
    "Average": 30.46530612,
    "indicator": -1.759862542,
    "congestion_level": "Low"
  },
  {
    "date": "5/7/2025",
    "company": "CPKC",
    "location": "Albany, NY",
    "Yard": "Albany, NY",
    "lat": 42.63336715,
    "lng": -73.7611767,
    "dwell_time": 14.919077,
    "Average": null,
    "indicator": null,
    "congestion_level": "Low"
  },
  {
    "date": "5/7/2025",
    "company": "CPKC",
    "location": "Glenwood, MN",
    "Yard": "Glenwood, MN",
    "lat": 45.64988169,
    "lng": -95.36640325,
    "dwell_time": 22.406757,
    "Average": null,
    "indicator": null,
    "congestion_level": "Average"
  },
  {
    "date": "5/7/2025",
    "company": "CPKC",
    "location": "La Crosse, WI",
    "Yard": "La Crosse, WI",
    "lat": 43.84106914,
    "lng": -91.23753209,
    "dwell_time": 26.699513,
    "Average": null,
    "indicator": null,
    "congestion_level": "High"
  },
  {
    "date": "5/7/2025",
    "company": "CPKC",
    "location": "Mason City, IA",
    "Yard": "Mason City, IA",
    "lat": 43.1417676,
    "lng": -93.19591338,
    "dwell_time": 20.968754,
    "Average": null,
    "indicator": null,
    "congestion_level": "Average"
  },
  {
    "date": "5/7/2025",
    "company": "CPKC",
    "location": "Milwaukee, WI",
    "Yard": "Milwaukee, WI",
    "lat": 43.02753366,
    "lng": -87.9349538,
    "dwell_time": 30.099702,
    "Average": null,
    "indicator": null,
    "congestion_level": "Very High"
  },
  {
    "date": "5/7/2025",
    "company": "CPKC",
    "location": "Saratoga Springs, NY",
    "Yard": "Saratoga Springs, NY",
    "lat": 43.06684433,
    "lng": -73.8161988,
    "dwell_time": 17.332243,
    "Average": null,
    "indicator": null,
    "congestion_level": "Low"
  },
  {
    "date": "5/7/2025",
    "company": "CPKC",
    "location": "Wylie, TX",
    "Yard": "Wylie, TX",
    "lat": 33.02619265,
    "lng": -96.50913366,
    "dwell_time": 11.15,
    "Average": null,
    "indicator": null,
    "congestion_level": "Low"
  },
  {
    "date": "5/7/2025",
    "company": "CPKC",
    "location": "Artesia, MS",
    "Yard": "Artesia, MS",
    "lat": 33.41421071,
    "lng": -88.64338396,
    "dwell_time": 10.6,
    "Average": null,
    "indicator": null,
    "congestion_level": "Low"
  },
  {
    "date": "5/7/2025",
    "company": "CPKC",
    "location": "Baton Rouge, LA",
    "Yard": "Baton Rouge, LA",
    "lat": 30.46068888,
    "lng": -91.17492516,
    "dwell_time": 9.09,
    "Average": null,
    "indicator": null,
    "congestion_level": "Very Low"
  },
  {
    "date": "5/7/2025",
    "company": "CPKC",
    "location": "Whittington, LA",
    "Yard": "Whittington, LA",
    "lat": 31.18994913,
    "lng": -92.34272999,
    "dwell_time": 17.69,
    "Average": null,
    "indicator": null,
    "congestion_level": "Low"
  },
  {
    "date": "5/7/2025",
    "company": "CPKC",
    "location": "Beaumont, TX",
    "Yard": "Beaumont, TX",
    "lat": 30.04787963,
    "lng": -94.07457009,
    "dwell_time": 17.05,
    "Average": null,
    "indicator": null,
    "congestion_level": "Low"
  }
]