[
  {
    "date": "2025-09-12 0:00:00",
    "company": "BNSF",
    "location": "Barstow, CA",
    "Yard": "Barstow, CA",
    "lat": 34.8957957,
    "lng": -117.0172826,
    "dwell_time": 24.3,
    "Average": 32.42045455,
    "indicator": -1.775540156,
    "congestion_level": "Low"
  },
  {
    "date": "2025-09-12 0:00:00",
    "company": "BNSF",
    "location": "Denver, CO",
    "Yard": "Denver, CO",
    "lat": 39.7392358,
    "lng": -104.990251,
    "dwell_time": 26.3,
    "Average": 31.41590909,
    "indicator": -1.333195508,
    "congestion_level": "Low"
  },
  {
    "date": "2025-09-12 0:00:00",
    "company": "BNSF",
    "location": "Fort Worth, TX",
    "Yard": "Fort Worth, TX",
    "lat": 32.7554883,
    "lng": -97.3307658,
    "dwell_time": 26.1,
    "Average": 26.01136364,
    "indicator": 0.01298591915,
    "congestion_level": "Average"
  },
  {
    "date": "2025-09-12 0:00:00",
    "company": "BNSF",
    "location": "Galesburg, IL",
    "Yard": "Galesburg, IL",
    "lat": 40.9478158,
    "lng": -90.3712395,
    "dwell_time": 27.9,
    "Average": 32.16818182,
    "indicator": -0.9642925715,
    "congestion_level": "Average"
  },
  {
    "date": "2025-09-12 0:00:00",
    "company": "BNSF",
    "location": "Kansas City, KS",
    "Yard": "Kansas City, KS",
    "lat": 39.0997265,
    "lng": -94.5785667,
    "dwell_time": 25.4,
    "Average": 33.50227273,
    "indicator": -1.210128602,
    "congestion_level": "Low"
  },
  {
    "date": "2025-09-12 0:00:00",
    "company": "BNSF",
    "location": "Lincoln, NE",
    "Yard": "Lincoln, NE",
    "lat": 40.813616,
    "lng": -96.7025955,
    "dwell_time": 25.8,
    "Average": 28.71818182,
    "indicator": -0.8480581645,
    "congestion_level": "Average"
  },
  {
    "date": "2025-09-12 0:00:00",
    "company": "BNSF",
    "location": "Memphis, TN",
    "Yard": "Memphis, TN",
    "lat": 35.1495343,
    "lng": -90.0489801,
    "dwell_time": 17.4,
    "Average": 17.13409091,
    "indicator": 0.1125076203,
    "congestion_level": "Average"
  },
  {
    "date": "2025-09-12 0:00:00",
    "company": "BNSF",
    "location": "Northtown, MN",
    "Yard": "Northtown, MN",
    "lat": 45.128403,
    "lng": -93.259694,
    "dwell_time": 30.3,
    "Average": 30.39318182,
    "indicator": -0.0260392453,
    "congestion_level": "Average"
  },
  {
    "date": "2025-09-12 0:00:00",
    "company": "BNSF",
    "location": "Pasco, WA",
    "Yard": "Pasco, WA",
    "lat": 46.2305049,
    "lng": -119.0922316,
    "dwell_time": 24.0,
    "Average": 28.86590909,
    "indicator": -1.474944977,
    "congestion_level": "Low"
  },
  {
    "date": "2025-09-12 0:00:00",
    "company": "BNSF",
    "location": "Tulsa, OK",
    "Yard": "Tulsa, OK",
    "lat": 36.1539816,
    "lng": -95.992775,
    "dwell_time": 21.0,
    "Average": 25.16136364,
    "indicator": -1.401454733,
    "congestion_level": "Low"
  },
  {
    "date": "2025-09-12 0:00:00",
    "company": "CN",
    "location": "Baton Rouge, LA",
    "Yard": "Baton Rouge, LA",
    "lat": 30.4514677,
    "lng": -91.1871466,
    "dwell_time": 17.1,
    "Average": 14.70363636,
    "indicator": 0.7898285076,
    "congestion_level": "Average"
  },
  {
    "date": "2025-09-12 0:00:00",
    "company": "CN",
    "location": "Champaign, IL",
    "Yard": "Champaign, IL",
    "lat": 40.1164204,
    "lng": -88.2433829,
    "dwell_time": 13.44,
    "Average": 18.52136364,
    "indicator": -1.396265152,
    "congestion_level": "Low"
  },
  {
    "date": "2025-09-12 0:00:00",
    "company": "CN",
    "location": "Fond Du Lac, WI",
    "Yard": "Fond Du Lac, WI",
    "lat": 43.7730448,
    "lng": -88.4470508,
    "dwell_time": 17.33,
    "Average": 20.45227273,
    "indicator": -1.012741766,
    "congestion_level": "Low"
  },
  {
    "date": "2025-09-12 0:00:00",
    "company": "CN",
    "location": "Geismar, LA",
    "Yard": "Geismar, LA",
    "lat": 30.2193468,
    "lng": -91.0065088,
    "dwell_time": 14.99,
    "Average": 14.64636364,
    "indicator": 0.1487224444,
    "congestion_level": "Average"
  },
  {
    "date": "2025-09-12 0:00:00",
    "company": "CN",
    "location": "Jackson, MS",
    "Yard": "Jackson, MS",
    "lat": 32.2987573,
    "lng": -90.1848103,
    "dwell_time": 13.28,
    "Average": 11.80886364,
    "indicator": 0.7496001463,
    "congestion_level": "Average"
  },
  {
    "date": "2025-09-12 0:00:00",
    "company": "CN",
    "location": "Gary, IN",
    "Yard": "Gary, IN",
    "lat": 41.5933696,
    "lng": -87.3464271,
    "dwell_time": 21.72,
    "Average": 22.73295455,
    "indicator": -0.3730495568,
    "congestion_level": "Average"
  },
  {
    "date": "2025-09-12 0:00:00",
    "company": "CN",
    "location": "Markham, ON",
    "Yard": "Markham, ON",
    "lat": 43.8561002,
    "lng": -79.3370188,
    "dwell_time": 16.15,
    "Average": 10.91159091,
    "indicator": 2.81785916,
    "congestion_level": "Very High"
  },
  {
    "date": "2025-09-12 0:00:00",
    "company": "CN",
    "location": "Memphis, TN",
    "Yard": "Memphis, TN",
    "lat": 35.1495343,
    "lng": -90.0489801,
    "dwell_time": 19.67,
    "Average": 20.8875,
    "indicator": -0.4703601222,
    "congestion_level": "Average"
  },
  {
    "date": "2025-09-12 0:00:00",
    "company": "CN",
    "location": "Proctor, MN",
    "Yard": "Proctor, MN",
    "lat": 46.7471638,
    "lng": -92.2254695,
    "dwell_time": 10.16,
    "Average": 8.994090909,
    "indicator": 0.550823594,
    "congestion_level": "Average"
  },
  {
    "date": "2025-09-12 0:00:00",
    "company": "CN",
    "location": "Stevens Point, WI",
    "Yard": "Stevens Point, WI",
    "lat": 44.5235792,
    "lng": -89.574563,
    "dwell_time": 19.28,
    "Average": 20.21909091,
    "indicator": -0.4333035376,
    "congestion_level": "Average"
  },
  {
    "date": "2025-09-12 0:00:00",
    "company": "CPKC",
    "location": "Bensenville, IL",
    "Yard": "Bensenville, IL",
    "lat": 41.9550296,
    "lng": -87.9400657,
    "dwell_time": 25.8,
    "Average": 27.925,
    "indicator": -0.7071067812,
    "congestion_level": "Average"
  },
  {
    "date": "2025-09-12 0:00:00",
    "company": "CPKC",
    "location": "Harvey, ND",
    "Yard": "Harvey, ND",
    "lat": 47.769723,
    "lng": -99.935404,
    "dwell_time": 27.59,
    "Average": 28.035,
    "indicator": -0.7071067812,
    "congestion_level": "Average"
  },
  {
    "date": "2025-09-12 0:00:00",
    "company": "CPKC",
    "location": "Jackson, MS",
    "Yard": "Jackson, MS",
    "lat": 32.2987573,
    "lng": -90.1848103,
    "dwell_time": 23.24,
    "Average": 21.925,
    "indicator": 0.7071067812,
    "congestion_level": "Average"
  },
  {
    "date": "2025-09-12 0:00:00",
    "company": "CPKC",
    "location": "Kansas City, KS",
    "Yard": "Kansas City, KS",
    "lat": 39.0997265,
    "lng": -94.5785667,
    "dwell_time": 16.78,
    "Average": 17.225,
    "indicator": -0.7071067812,
    "congestion_level": "Average"
  },
  {
    "date": "2025-09-12 0:00:00",
    "company": "CPKC",
    "location": "Laredo, TX",
    "Yard": "Laredo, TX",
    "lat": 27.5035613,
    "lng": -99.5075519,
    "dwell_time": 4.47,
    "Average": 5.085,
    "indicator": -0.7071067812,
    "congestion_level": "Average"
  },
  {
    "date": "2025-09-12 0:00:00",
    "company": "CPKC",
    "location": "Meridian, MS",
    "Yard": "Meridian, MS",
    "lat": 32.3610377,
    "lng": -88.6991015,
    "dwell_time": 3.87,
    "Average": 7.38,
    "indicator": -0.7071067812,
    "congestion_level": "Average"
  },
  {
    "date": "2025-09-12 0:00:00",
    "company": "CPKC",
    "location": "Nahant, IA",
    "Yard": "Nahant, IA",
    "lat": 41.4875323,
    "lng": -90.6379164,
    "dwell_time": 27.31,
    "Average": 32.125,
    "indicator": -0.7071067812,
    "congestion_level": "Average"
  },
  {
    "date": "2025-09-12 0:00:00",
    "company": "CPKC",
    "location": "New Orleans, LA",
    "Yard": "New Orleans, LA",
    "lat": 29.9725656,
    "lng": -90.1399969,
    "dwell_time": 16.04,
    "Average": 15.81,
    "indicator": 0.7071067812,
    "congestion_level": "Average"
  },
  {
    "date": "2025-09-12 0:00:00",
    "company": "CPKC",
    "location": "Shreveport, LA",
    "Yard": "Shreveport, LA",
    "lat": 32.5251516,
    "lng": -93.7501789,
    "dwell_time": 40.25,
    "Average": 40.69,
    "indicator": -0.7071067812,
    "congestion_level": "Average"
  },
  {
    "date": "2025-09-12 0:00:00",
    "company": "CPKC",
    "location": "St. Paul, MN",
    "Yard": "St. Paul, MN",
    "lat": 44.9537029,
    "lng": -93.0899578,
    "dwell_time": 28.97,
    "Average": 28.175,
    "indicator": 0.7071067812,
    "congestion_level": "Average"
  },
  {
    "date": "2025-09-12 0:00:00",
    "company": "CSX",
    "location": "Baltimore, MD",
    "Yard": "Baltimore, MD",
    "lat": 39.2903848,
    "lng": -76.6121893,
    "dwell_time": 11.4,
    "Average": 17.01037037,
    "indicator": -1.156762741,
    "congestion_level": "Low"
  },
  {
    "date": "2025-09-12 0:00:00",
    "company": "CSX",
    "location": "Chicago, IL",
    "Yard": "Chicago, IL",
    "lat": 41.8781136,
    "lng": -87.6297982,
    "dwell_time": 14.49,
    "Average": 13.48806452,
    "indicator": 0.3809456276,
    "congestion_level": "Average"
  },
  {
    "date": "2025-09-12 0:00:00",
    "company": "CSX",
    "location": "Cincinnati, OH",
    "Yard": "Cincinnati, OH",
    "lat": 39.1031182,
    "lng": -84.5120196,
    "dwell_time": 23.14,
    "Average": 25.48431818,
    "indicator": -0.4989648805,
    "congestion_level": "Average"
  },
  {
    "date": "2025-09-12 0:00:00",
    "company": "CSX",
    "location": "Indianapolis, IN",
    "Yard": "Indianapolis, IN",
    "lat": 39.768403,
    "lng": -86.158068,
    "dwell_time": 21.11,
    "Average": 26.64454545,
    "indicator": -1.247499982,
    "congestion_level": "Low"
  },
  {
    "date": "2025-09-12 0:00:00",
    "company": "CSX",
    "location": "Jacksonville, FL",
    "Yard": "Jacksonville, FL",
    "lat": 30.3321838,
    "lng": -81.655651,
    "dwell_time": 16.77,
    "Average": 19.23290323,
    "indicator": -1.25444495,
    "congestion_level": "Low"
  },
  {
    "date": "2025-09-12 0:00:00",
    "company": "CSX",
    "location": "Louisville, KY",
    "Yard": "Louisville, KY",
    "lat": 38.2526647,
    "lng": -85.7584557,
    "dwell_time": 27.85,
    "Average": 27.81954545,
    "indicator": 0.005832751703,
    "congestion_level": "Average"
  },
  {
    "date": "2025-09-12 0:00:00",
    "company": "CSX",
    "location": "Nashville, TN",
    "Yard": "Nashville, TN",
    "lat": 36.1626638,
    "lng": -86.7816016,
    "dwell_time": 23.15,
    "Average": 28.53431818,
    "indicator": -1.083067035,
    "congestion_level": "Low"
  },
  {
    "date": "2025-09-12 0:00:00",
    "company": "CSX",
    "location": "Selkirk, NY",
    "Yard": "Selkirk, NY",
    "lat": 42.5319998,
    "lng": -73.7985008,
    "dwell_time": 25.27,
    "Average": 28.05,
    "indicator": -0.6139560345,
    "congestion_level": "Average"
  },
  {
    "date": "2025-09-12 0:00:00",
    "company": "CSX",
    "location": "Toledo, OH",
    "Yard": "Toledo, OH",
    "lat": 41.6528052,
    "lng": -83.5378674,
    "dwell_time": 16.31,
    "Average": 28.20272727,
    "indicator": -1.904235179,
    "congestion_level": "Low"
  },
  {
    "date": "2025-09-12 0:00:00",
    "company": "CSX",
    "location": "Waycross, GA",
    "Yard": "Waycross, GA",
    "lat": 31.2135511,
    "lng": -82.3540178,
    "dwell_time": 26.37,
    "Average": 26.89409091,
    "indicator": -0.08225027484,
    "congestion_level": "Average"
  },
  {
    "date": "2025-09-12 0:00:00",
    "company": "NS",
    "location": "Atlanta, GA",
    "Yard": "Atlanta, GA",
    "lat": 33.7489954,
    "lng": -84.3879824,
    "dwell_time": 19.5,
    "Average": 17.35142857,
    "indicator": 0.6039062957,
    "congestion_level": "Average"
  },
  {
    "date": "2025-09-12 0:00:00",
    "company": "NS",
    "location": "Bellevue, OH",
    "Yard": "Bellevue, OH",
    "lat": 41.2736647,
    "lng": -82.8415763,
    "dwell_time": 25.9,
    "Average": 28.37727273,
    "indicator": -0.5361220883,
    "congestion_level": "Average"
  },
  {
    "date": "2025-09-12 0:00:00",
    "company": "NS",
    "location": "Birmingham, AL",
    "Yard": "Birmingham, AL",
    "lat": 33.5185892,
    "lng": -86.8103567,
    "dwell_time": 25.0,
    "Average": 28.24090909,
    "indicator": -0.8774607355,
    "congestion_level": "Average"
  },
  {
    "date": "2025-09-12 0:00:00",
    "company": "NS",
    "location": "Chattanooga, TN",
    "Yard": "Chattanooga, TN",
    "lat": 35.0456297,
    "lng": -85.3096801,
    "dwell_time": 24.4,
    "Average": 28.53181818,
    "indicator": -1.017530836,
    "congestion_level": "Low"
  },
  {
    "date": "2025-09-12 0:00:00",
    "company": "NS",
    "location": "Pittsburgh, PA",
    "Yard": "Pittsburgh, PA",
    "lat": 40.4406248,
    "lng": -79.9958864,
    "dwell_time": 28.8,
    "Average": 26.97272727,
    "indicator": 0.4504446739,
    "congestion_level": "Average"
  },
  {
    "date": "2025-09-12 0:00:00",
    "company": "NS",
    "location": "Decatur, IL",
    "Yard": "Decatur, IL",
    "lat": 39.8403147,
    "lng": -88.9548001,
    "dwell_time": 28.4,
    "Average": 24.06363636,
    "indicator": 0.782309542,
    "congestion_level": "Average"
  },
  {
    "date": "2025-09-12 0:00:00",
    "company": "NS",
    "location": "Elkhart, IN",
    "Yard": "Elkhart, IN",
    "lat": 41.6819935,
    "lng": -85.9766671,
    "dwell_time": 22.3,
    "Average": 27.025,
    "indicator": -1.094145949,
    "congestion_level": "Low"
  },
  {
    "date": "2025-09-12 0:00:00",
    "company": "NS",
    "location": "Harrisburg, PA",
    "Yard": "Harrisburg, PA",
    "lat": 40.3028161,
    "lng": -76.8928454,
    "dwell_time": 7.1,
    "Average": 13.25652174,
    "indicator": -2.167341605,
    "congestion_level": "Very Low"
  },
  {
    "date": "2025-09-12 0:00:00",
    "company": "NS",
    "location": "Macon, GA",
    "Yard": "Macon, GA",
    "lat": 32.8406946,
    "lng": -83.6324022,
    "dwell_time": 26.4,
    "Average": 28.59090909,
    "indicator": -0.4839961999,
    "congestion_level": "Average"
  },
  {
    "date": "2025-09-12 0:00:00",
    "company": "NS",
    "location": "Roanoke, VA",
    "Yard": "Roanoke, VA",
    "lat": 37.2739515,
    "lng": -79.9510329,
    "dwell_time": 39.4,
    "Average": 27.70434783,
    "indicator": 2.002965333,
    "congestion_level": "Very High"
  },
  {
    "date": "2025-09-12 0:00:00",
    "company": "UP",
    "location": "Proviso, IL",
    "Yard": "Proviso, IL",
    "lat": 41.8653429,
    "lng": -87.8721439,
    "dwell_time": 21.9,
    "Average": 26.45454545,
    "indicator": -0.7369554631,
    "congestion_level": "Average"
  },
  {
    "date": "2025-09-12 0:00:00",
    "company": "UP",
    "location": "Fort Worth, TX",
    "Yard": "Fort Worth, TX",
    "lat": 32.7554883,
    "lng": -97.3307658,
    "dwell_time": 20.4,
    "Average": 26.09318182,
    "indicator": -1.156921413,
    "congestion_level": "Low"
  },
  {
    "date": "2025-09-12 0:00:00",
    "company": "UP",
    "location": "Englewood, TX",
    "Yard": "Englewood, TX",
    "lat": 29.7983826,
    "lng": -95.3079662,
    "dwell_time": 19.4,
    "Average": 26.33863636,
    "indicator": -1.489844761,
    "congestion_level": "Low"
  },
  {
    "date": "2025-09-12 0:00:00",
    "company": "UP",
    "location": "Livonia, LA",
    "Yard": "Livonia, LA",
    "lat": 30.5590803,
    "lng": -91.555945,
    "dwell_time": 20.1,
    "Average": 27.21363636,
    "indicator": -1.434605729,
    "congestion_level": "Low"
  },
  {
    "date": "2025-09-12 0:00:00",
    "company": "UP",
    "location": "North Little Rock, AR",
    "Yard": "North Little Rock, AR",
    "lat": 34.769536,
    "lng": -92.2670941,
    "dwell_time": 21.6,
    "Average": 25.39545455,
    "indicator": -0.9276546846,
    "congestion_level": "Average"
  },
  {
    "date": "2025-09-12 0:00:00",
    "company": "UP",
    "location": "North Platte West, NE",
    "Yard": "North Platte West, NE",
    "lat": 41.1402759,
    "lng": -100.7601454,
    "dwell_time": 18.4,
    "Average": 28.52954545,
    "indicator": -2.0437325,
    "congestion_level": "Very Low"
  },
  {
    "date": "2025-09-12 0:00:00",
    "company": "UP",
    "location": "Pine Bluff, AR",
    "Yard": "Pine Bluff, AR",
    "lat": 34.2284312,
    "lng": -92.0031955,
    "dwell_time": 21.0,
    "Average": 28.38863636,
    "indicator": -1.762613341,
    "congestion_level": "Low"
  },
  {
    "date": "2025-09-12 0:00:00",
    "company": "UP",
    "location": "Roseville, CA",
    "Yard": "Roseville, CA",
    "lat": 38.7521235,
    "lng": -121.2880059,
    "dwell_time": 19.3,
    "Average": 27.22045455,
    "indicator": -1.318122335,
    "congestion_level": "Low"
  },
  {
    "date": "2025-09-12 0:00:00",
    "company": "UP",
    "location": "Anthony, NM",
    "Yard": "Anthony, NM",
    "lat": 31.90796865,
    "lng": -106.7478105,
    "dwell_time": 21.6,
    "Average": 20.87368421,
    "indicator": 0.1821436961,
    "congestion_level": "Average"
  },
  {
    "date": "2025-09-12 0:00:00",
    "company": "UP",
    "location": "West Colton, CA",
    "Yard": "West Colton, CA",
    "lat": 34.0669931,
    "lng": -117.3529857,
    "dwell_time": 19.7,
    "Average": 29.85454545,
    "indicator": -1.510199771,
    "congestion_level": "Low"
  },
  {
    "date": "5/7/2025",
    "company": "CPKC",
    "location": "Albany, NY",
    "Yard": "Albany, NY",
    "lat": 42.63336715,
    "lng": -73.7611767,
    "dwell_time": 14.919077,
    "Average": null,
    "indicator": null,
    "congestion_level": "Low"
  },
  {
    "date": "5/7/2025",
    "company": "CPKC",
    "location": "Glenwood, MN",
    "Yard": "Glenwood, MN",
    "lat": 45.64988169,
    "lng": -95.36640325,
    "dwell_time": 22.406757,
    "Average": null,
    "indicator": null,
    "congestion_level": "Average"
  },
  {
    "date": "5/7/2025",
    "company": "CPKC",
    "location": "La Crosse, WI",
    "Yard": "La Crosse, WI",
    "lat": 43.84106914,
    "lng": -91.23753209,
    "dwell_time": 26.699513,
    "Average": null,
    "indicator": null,
    "congestion_level": "High"
  },
  {
    "date": "5/7/2025",
    "company": "CPKC",
    "location": "Mason City, IA",
    "Yard": "Mason City, IA",
    "lat": 43.1417676,
    "lng": -93.19591338,
    "dwell_time": 20.968754,
    "Average": null,
    "indicator": null,
    "congestion_level": "Average"
  },
  {
    "date": "5/7/2025",
    "company": "CPKC",
    "location": "Milwaukee, WI",
    "Yard": "Milwaukee, WI",
    "lat": 43.02753366,
    "lng": -87.9349538,
    "dwell_time": 30.099702,
    "Average": null,
    "indicator": null,
    "congestion_level": "Very High"
  },
  {
    "date": "5/7/2025",
    "company": "CPKC",
    "location": "Saratoga Springs, NY",
    "Yard": "Saratoga Springs, NY",
    "lat": 43.06684433,
    "lng": -73.8161988,
    "dwell_time": 17.332243,
    "Average": null,
    "indicator": null,
    "congestion_level": "Low"
  },
  {
    "date": "5/7/2025",
    "company": "CPKC",
    "location": "Wylie, TX",
    "Yard": "Wylie, TX",
    "lat": 33.02619265,
    "lng": -96.50913366,
    "dwell_time": 11.15,
    "Average": null,
    "indicator": null,
    "congestion_level": "Low"
  },
  {
    "date": "5/7/2025",
    "company": "CPKC",
    "location": "Artesia, MS",
    "Yard": "Artesia, MS",
    "lat": 33.41421071,
    "lng": -88.64338396,
    "dwell_time": 10.6,
    "Average": null,
    "indicator": null,
    "congestion_level": "Low"
  },
  {
    "date": "5/7/2025",
    "company": "CPKC",
    "location": "Baton Rouge, LA",
    "Yard": "Baton Rouge, LA",
    "lat": 30.46068888,
    "lng": -91.17492516,
    "dwell_time": 9.09,
    "Average": null,
    "indicator": null,
    "congestion_level": "Very Low"
  },
  {
    "date": "5/7/2025",
    "company": "CPKC",
    "location": "Whittington, LA",
    "Yard": "Whittington, LA",
    "lat": 31.18994913,
    "lng": -92.34272999,
    "dwell_time": 17.69,
    "Average": null,
    "indicator": null,
    "congestion_level": "Low"
  },
  {
    "date": "5/7/2025",
    "company": "CPKC",
    "location": "Beaumont, TX",
    "Yard": "Beaumont, TX",
    "lat": 30.04787963,
    "lng": -94.07457009,
    "dwell_time": 17.05,
    "Average": null,
    "indicator": null,
    "congestion_level": "Low"
  }
]