[
  {
    "date": "2025-09-19 0:00:00",
    "company": "BNSF",
    "location": "Barstow, CA",
    "Yard": "Barstow, CA",
    "lat": 34.8957957,
    "lng": -117.0172826,
    "dwell_time": 27.2,
    "Average": 32.30444444,
    "indicator": -1.112630025,
    "congestion_level": "Low"
  },
  {
    "date": "2025-09-19 0:00:00",
    "company": "BNSF",
    "location": "Denver, CO",
    "Yard": "Denver, CO",
    "lat": 39.7392358,
    "lng": -104.990251,
    "dwell_time": 29.3,
    "Average": 31.36888889,
    "indicator": -0.5435058031,
    "congestion_level": "Average"
  },
  {
    "date": "2025-09-19 0:00:00",
    "company": "BNSF",
    "location": "Fort Worth, TX",
    "Yard": "Fort Worth, TX",
    "lat": 32.7554883,
    "lng": -97.3307658,
    "dwell_time": 24.5,
    "Average": 25.97777778,
    "indicator": -0.2188870389,
    "congestion_level": "Average"
  },
  {
    "date": "2025-09-19 0:00:00",
    "company": "BNSF",
    "location": "Galesburg, IL",
    "Yard": "Galesburg, IL",
    "lat": 40.9478158,
    "lng": -90.3712395,
    "dwell_time": 28.7,
    "Average": 32.09111111,
    "indicator": -0.769643274,
    "congestion_level": "Average"
  },
  {
    "date": "2025-09-19 0:00:00",
    "company": "BNSF",
    "location": "Kansas City, KS",
    "Yard": "Kansas City, KS",
    "lat": 39.0997265,
    "lng": -94.5785667,
    "dwell_time": 29.3,
    "Average": 33.40888889,
    "indicator": -0.6180231275,
    "congestion_level": "Average"
  },
  {
    "date": "2025-09-19 0:00:00",
    "company": "BNSF",
    "location": "Lincoln, NE",
    "Yard": "Lincoln, NE",
    "lat": 40.813616,
    "lng": -96.7025955,
    "dwell_time": 29.6,
    "Average": 28.73777778,
    "indicator": 0.2532798169,
    "congestion_level": "Average"
  },
  {
    "date": "2025-09-19 0:00:00",
    "company": "BNSF",
    "location": "Memphis, TN",
    "Yard": "Memphis, TN",
    "lat": 35.1495343,
    "lng": -90.0489801,
    "dwell_time": 18.3,
    "Average": 17.16,
    "indicator": 0.4865723735,
    "congestion_level": "Average"
  },
  {
    "date": "2025-09-19 0:00:00",
    "company": "BNSF",
    "location": "Northtown, MN",
    "Yard": "Northtown, MN",
    "lat": 45.128403,
    "lng": -93.259694,
    "dwell_time": 27.4,
    "Average": 30.32666667,
    "indicator": -0.8207960599,
    "congestion_level": "Average"
  },
  {
    "date": "2025-09-19 0:00:00",
    "company": "BNSF",
    "location": "Pasco, WA",
    "Yard": "Pasco, WA",
    "lat": 46.2305049,
    "lng": -119.0922316,
    "dwell_time": 25.5,
    "Average": 28.79111111,
    "indicator": -0.9973933634,
    "congestion_level": "Average"
  },
  {
    "date": "2025-09-19 0:00:00",
    "company": "BNSF",
    "location": "Tulsa, OK",
    "Yard": "Tulsa, OK",
    "lat": 36.1539816,
    "lng": -95.992775,
    "dwell_time": 20.5,
    "Average": 25.05777778,
    "indicator": -1.510945645,
    "congestion_level": "Low"
  },
  {
    "date": "2025-09-19 0:00:00",
    "company": "CN",
    "location": "Baton Rouge, LA",
    "Yard": "Baton Rouge, LA",
    "lat": 30.4514677,
    "lng": -91.1871466,
    "dwell_time": 17.22,
    "Average": 14.75955556,
    "indicator": 0.8139833783,
    "congestion_level": "Average"
  },
  {
    "date": "2025-09-19 0:00:00",
    "company": "CN",
    "location": "Champaign, IL",
    "Yard": "Champaign, IL",
    "lat": 40.1164204,
    "lng": -88.2433829,
    "dwell_time": 12.9,
    "Average": 18.39644444,
    "indicator": -1.487952218,
    "congestion_level": "Low"
  },
  {
    "date": "2025-09-19 0:00:00",
    "company": "CN",
    "location": "Fond Du Lac, WI",
    "Yard": "Fond Du Lac, WI",
    "lat": 43.7730448,
    "lng": -88.4470508,
    "dwell_time": 18.61,
    "Average": 20.41133333,
    "indicator": -0.5886512215,
    "congestion_level": "Average"
  },
  {
    "date": "2025-09-19 0:00:00",
    "company": "CN",
    "location": "Geismar, LA",
    "Yard": "Geismar, LA",
    "lat": 30.2193468,
    "lng": -91.0065088,
    "dwell_time": 14.93,
    "Average": 14.65266667,
    "indicator": 0.121393991,
    "congestion_level": "Average"
  },
  {
    "date": "2025-09-19 0:00:00",
    "company": "CN",
    "location": "Jackson, MS",
    "Yard": "Jackson, MS",
    "lat": 32.2987573,
    "lng": -90.1848103,
    "dwell_time": 12.99,
    "Average": 11.83511111,
    "indicator": 0.5928269098,
    "congestion_level": "Average"
  },
  {
    "date": "2025-09-19 0:00:00",
    "company": "CN",
    "location": "Gary, IN",
    "Yard": "Gary, IN",
    "lat": 41.5933696,
    "lng": -87.3464271,
    "dwell_time": 24.82,
    "Average": 22.77933333,
    "indicator": 0.7551672149,
    "congestion_level": "Average"
  },
  {
    "date": "2025-09-19 0:00:00",
    "company": "CN",
    "location": "Markham, ON",
    "Yard": "Markham, ON",
    "lat": 43.8561002,
    "lng": -79.3370188,
    "dwell_time": 11.87,
    "Average": 10.93288889,
    "indicator": 0.5083872087,
    "congestion_level": "Average"
  },
  {
    "date": "2025-09-19 0:00:00",
    "company": "CN",
    "location": "Memphis, TN",
    "Yard": "Memphis, TN",
    "lat": 35.1495343,
    "lng": -90.0489801,
    "dwell_time": 21.39,
    "Average": 20.89866667,
    "indicator": 0.191930438,
    "congestion_level": "Average"
  },
  {
    "date": "2025-09-19 0:00:00",
    "company": "CN",
    "location": "Proctor, MN",
    "Yard": "Proctor, MN",
    "lat": 46.7471638,
    "lng": -92.2254695,
    "dwell_time": 9.7,
    "Average": 9.009777778,
    "indicator": 0.3294430891,
    "congestion_level": "Average"
  },
  {
    "date": "2025-09-19 0:00:00",
    "company": "CN",
    "location": "Stevens Point, WI",
    "Yard": "Stevens Point, WI",
    "lat": 44.5235792,
    "lng": -89.574563,
    "dwell_time": 20.85,
    "Average": 20.23311111,
    "indicator": 0.2876508249,
    "congestion_level": "Average"
  },
  {
    "date": "2025-09-19 0:00:00",
    "company": "CPKC",
    "location": "Bensenville, IL",
    "Yard": "Bensenville, IL",
    "lat": 41.9550296,
    "lng": -87.9400657,
    "dwell_time": 25.95,
    "Average": 27.26666667,
    "indicator": -0.5459713641,
    "congestion_level": "Average"
  },
  {
    "date": "2025-09-19 0:00:00",
    "company": "CPKC",
    "location": "Harvey, ND",
    "Yard": "Harvey, ND",
    "lat": 47.769723,
    "lng": -99.935404,
    "dwell_time": 15.24,
    "Average": 23.77,
    "indicator": -1.152611146,
    "congestion_level": "Low"
  },
  {
    "date": "2025-09-19 0:00:00",
    "company": "CPKC",
    "location": "Jackson, MS",
    "Yard": "Jackson, MS",
    "lat": 32.2987573,
    "lng": -90.1848103,
    "dwell_time": 29.92,
    "Average": 24.59,
    "indicator": 1.11051548,
    "congestion_level": "High"
  },
  {
    "date": "2025-09-19 0:00:00",
    "company": "CPKC",
    "location": "Kansas City, KS",
    "Yard": "Kansas City, KS",
    "lat": 39.0997265,
    "lng": -94.5785667,
    "dwell_time": 12.93,
    "Average": 15.79333333,
    "indicator": -1.136544696,
    "congestion_level": "Low"
  },
  {
    "date": "2025-09-19 0:00:00",
    "company": "CPKC",
    "location": "Laredo, TX",
    "Yard": "Laredo, TX",
    "lat": 27.5035613,
    "lng": -99.5075519,
    "dwell_time": 3.14,
    "Average": 4.436666667,
    "indicator": -1.012763307,
    "congestion_level": "Low"
  },
  {
    "date": "2025-09-19 0:00:00",
    "company": "CPKC",
    "location": "Meridian, MS",
    "Yard": "Meridian, MS",
    "lat": 32.3610377,
    "lng": -88.6991015,
    "dwell_time": 3.94,
    "Average": 6.233333333,
    "indicator": -0.568650002,
    "congestion_level": "Average"
  },
  {
    "date": "2025-09-19 0:00:00",
    "company": "CPKC",
    "location": "Nahant, IA",
    "Yard": "Nahant, IA",
    "lat": 41.4875323,
    "lng": -90.6379164,
    "dwell_time": 25.96,
    "Average": 30.07,
    "indicator": -0.6863999676,
    "congestion_level": "Average"
  },
  {
    "date": "2025-09-19 0:00:00",
    "company": "CPKC",
    "location": "New Orleans, LA",
    "Yard": "New Orleans, LA",
    "lat": 29.9725656,
    "lng": -90.1399969,
    "dwell_time": 11.74,
    "Average": 14.45333333,
    "indicator": -1.149208665,
    "congestion_level": "Low"
  },
  {
    "date": "2025-09-19 0:00:00",
    "company": "CPKC",
    "location": "Shreveport, LA",
    "Yard": "Shreveport, LA",
    "lat": 32.5251516,
    "lng": -93.7501789,
    "dwell_time": 43.15,
    "Average": 41.51,
    "indicator": 1.102983765,
    "congestion_level": "High"
  },
  {
    "date": "2025-09-19 0:00:00",
    "company": "CPKC",
    "location": "St. Paul, MN",
    "Yard": "St. Paul, MN",
    "lat": 44.9537029,
    "lng": -93.0899578,
    "dwell_time": 25.66,
    "Average": 27.33666667,
    "indicator": -1.01283129,
    "congestion_level": "Low"
  },
  {
    "date": "2025-09-19 0:00:00",
    "company": "CSX",
    "location": "Baltimore, MD",
    "Yard": "Baltimore, MD",
    "lat": 39.2903848,
    "lng": -76.6121893,
    "dwell_time": 10.43,
    "Average": 16.77535714,
    "indicator": -1.289921392,
    "congestion_level": "Low"
  },
  {
    "date": "2025-09-19 0:00:00",
    "company": "CSX",
    "location": "Chicago, IL",
    "Yard": "Chicago, IL",
    "lat": 41.8781136,
    "lng": -87.6297982,
    "dwell_time": 13.73,
    "Average": 13.495625,
    "indicator": 0.09057230412,
    "congestion_level": "Average"
  },
  {
    "date": "2025-09-19 0:00:00",
    "company": "CSX",
    "location": "Cincinnati, OH",
    "Yard": "Cincinnati, OH",
    "lat": 39.1031182,
    "lng": -84.5120196,
    "dwell_time": 24.1,
    "Average": 25.45355556,
    "indicator": -0.2911343101,
    "congestion_level": "Average"
  },
  {
    "date": "2025-09-19 0:00:00",
    "company": "CSX",
    "location": "Indianapolis, IN",
    "Yard": "Indianapolis, IN",
    "lat": 39.768403,
    "lng": -86.158068,
    "dwell_time": 20.94,
    "Average": 26.51777778,
    "indicator": -1.248527051,
    "congestion_level": "Low"
  },
  {
    "date": "2025-09-19 0:00:00",
    "company": "CSX",
    "location": "Jacksonville, FL",
    "Yard": "Jacksonville, FL",
    "lat": 30.3321838,
    "lng": -81.655651,
    "dwell_time": 14.79,
    "Average": 19.0940625,
    "indicator": -2.064300117,
    "congestion_level": "Very Low"
  },
  {
    "date": "2025-09-19 0:00:00",
    "company": "CSX",
    "location": "Louisville, KY",
    "Yard": "Louisville, KY",
    "lat": 38.2526647,
    "lng": -85.7584557,
    "dwell_time": 31.31,
    "Average": 27.89711111,
    "indicator": 0.6578700532,
    "congestion_level": "Average"
  },
  {
    "date": "2025-09-19 0:00:00",
    "company": "CSX",
    "location": "Nashville, TN",
    "Yard": "Nashville, TN",
    "lat": 36.1626638,
    "lng": -86.7816016,
    "dwell_time": 26.34,
    "Average": 28.48555556,
    "indicator": -0.4356087772,
    "congestion_level": "Average"
  },
  {
    "date": "2025-09-19 0:00:00",
    "company": "CSX",
    "location": "Selkirk, NY",
    "Yard": "Selkirk, NY",
    "lat": 42.5319998,
    "lng": -73.7985008,
    "dwell_time": 25.72,
    "Average": 27.99822222,
    "indicator": -0.5074311777,
    "congestion_level": "Average"
  },
  {
    "date": "2025-09-19 0:00:00",
    "company": "CSX",
    "location": "Toledo, OH",
    "Yard": "Toledo, OH",
    "lat": 41.6528052,
    "lng": -83.5378674,
    "dwell_time": 19.73,
    "Average": 28.01444444,
    "indicator": -1.314595096,
    "congestion_level": "Low"
  },
  {
    "date": "2025-09-19 0:00:00",
    "company": "CSX",
    "location": "Waycross, GA",
    "Yard": "Waycross, GA",
    "lat": 31.2135511,
    "lng": -82.3540178,
    "dwell_time": 26.38,
    "Average": 26.88266667,
    "indicator": -0.07979410161,
    "congestion_level": "Average"
  },
  {
    "date": "2025-09-19 0:00:00",
    "company": "NS",
    "location": "Atlanta, GA",
    "Yard": "Atlanta, GA",
    "lat": 33.7489954,
    "lng": -84.3879824,
    "dwell_time": 16.4,
    "Average": 17.325,
    "indicator": -0.2635193191,
    "congestion_level": "Average"
  },
  {
    "date": "2025-09-19 0:00:00",
    "company": "NS",
    "location": "Bellevue, OH",
    "Yard": "Bellevue, OH",
    "lat": 41.2736647,
    "lng": -82.8415763,
    "dwell_time": 31.8,
    "Average": 28.45333333,
    "indicator": 0.7281183085,
    "congestion_level": "Average"
  },
  {
    "date": "2025-09-19 0:00:00",
    "company": "NS",
    "location": "Birmingham, AL",
    "Yard": "Birmingham, AL",
    "lat": 33.5185892,
    "lng": -86.8103567,
    "dwell_time": 27.6,
    "Average": 28.22666667,
    "indicator": -0.1715698307,
    "congestion_level": "Average"
  },
  {
    "date": "2025-09-19 0:00:00",
    "company": "NS",
    "location": "Chattanooga, TN",
    "Yard": "Chattanooga, TN",
    "lat": 35.0456297,
    "lng": -85.3096801,
    "dwell_time": 25.5,
    "Average": 28.46444444,
    "indicator": -0.7338486355,
    "congestion_level": "Average"
  },
  {
    "date": "2025-09-19 0:00:00",
    "company": "NS",
    "location": "Pittsburgh, PA",
    "Yard": "Pittsburgh, PA",
    "lat": 40.4406248,
    "lng": -79.9958864,
    "dwell_time": 29.3,
    "Average": 27.02444444,
    "indicator": 0.5653254357,
    "congestion_level": "Average"
  },
  {
    "date": "2025-09-19 0:00:00",
    "company": "NS",
    "location": "Decatur, IL",
    "Yard": "Decatur, IL",
    "lat": 39.8403147,
    "lng": -88.9548001,
    "dwell_time": 27.9,
    "Average": 24.14888889,
    "indicator": 0.6808517243,
    "congestion_level": "Average"
  },
  {
    "date": "2025-09-19 0:00:00",
    "company": "NS",
    "location": "Elkhart, IN",
    "Yard": "Elkhart, IN",
    "lat": 41.6819935,
    "lng": -85.9766671,
    "dwell_time": 25.6,
    "Average": 26.99333333,
    "indicator": -0.3259744734,
    "congestion_level": "Average"
  },
  {
    "date": "2025-09-19 0:00:00",
    "company": "NS",
    "location": "Harrisburg, PA",
    "Yard": "Harrisburg, PA",
    "lat": 40.3028161,
    "lng": -76.8928454,
    "dwell_time": 8.3,
    "Average": 13.05,
    "indicator": -1.606551635,
    "congestion_level": "Low"
  },
  {
    "date": "2025-09-19 0:00:00",
    "company": "NS",
    "location": "Macon, GA",
    "Yard": "Macon, GA",
    "lat": 32.8406946,
    "lng": -83.6324022,
    "dwell_time": 25.7,
    "Average": 28.52666667,
    "indicator": -0.6287524926,
    "congestion_level": "Average"
  },
  {
    "date": "2025-09-19 0:00:00",
    "company": "NS",
    "location": "Roanoke, VA",
    "Yard": "Roanoke, VA",
    "lat": 37.2739515,
    "lng": -79.9510329,
    "dwell_time": 35.8,
    "Average": 28.04166667,
    "indicator": 1.304995139,
    "congestion_level": "High"
  },
  {
    "date": "2025-09-19 0:00:00",
    "company": "UP",
    "location": "Proviso, IL",
    "Yard": "Proviso, IL",
    "lat": 41.8653429,
    "lng": -87.8721439,
    "dwell_time": 20.8,
    "Average": 26.32888889,
    "indicator": -0.896461334,
    "congestion_level": "Average"
  },
  {
    "date": "2025-09-19 0:00:00",
    "company": "UP",
    "location": "Fort Worth, TX",
    "Yard": "Fort Worth, TX",
    "lat": 32.7554883,
    "lng": -97.3307658,
    "dwell_time": 20.2,
    "Average": 25.96222222,
    "indicator": -1.165634702,
    "congestion_level": "Low"
  },
  {
    "date": "2025-09-19 0:00:00",
    "company": "UP",
    "location": "Englewood, TX",
    "Yard": "Englewood, TX",
    "lat": 29.7983826,
    "lng": -95.3079662,
    "dwell_time": 20.5,
    "Average": 26.20888889,
    "indicator": -1.218388157,
    "congestion_level": "Low"
  },
  {
    "date": "2025-09-19 0:00:00",
    "company": "UP",
    "location": "Livonia, LA",
    "Yard": "Livonia, LA",
    "lat": 30.5590803,
    "lng": -91.555945,
    "dwell_time": 21.7,
    "Average": 27.09111111,
    "indicator": -1.084652344,
    "congestion_level": "Low"
  },
  {
    "date": "2025-09-19 0:00:00",
    "company": "UP",
    "location": "North Little Rock, AR",
    "Yard": "North Little Rock, AR",
    "lat": 34.769536,
    "lng": -92.2670941,
    "dwell_time": 21.5,
    "Average": 25.30888889,
    "indicator": -0.9321428995,
    "congestion_level": "Average"
  },
  {
    "date": "2025-09-19 0:00:00",
    "company": "UP",
    "location": "North Platte West, NE",
    "Yard": "North Platte West, NE",
    "lat": 41.1402759,
    "lng": -100.7601454,
    "dwell_time": 19.9,
    "Average": 28.33777778,
    "indicator": -1.665633374,
    "congestion_level": "Low"
  },
  {
    "date": "2025-09-19 0:00:00",
    "company": "UP",
    "location": "Pine Bluff, AR",
    "Yard": "Pine Bluff, AR",
    "lat": 34.2284312,
    "lng": -92.0031955,
    "dwell_time": 24.6,
    "Average": 28.30444444,
    "indicator": -0.8857506966,
    "congestion_level": "Average"
  },
  {
    "date": "2025-09-19 0:00:00",
    "company": "UP",
    "location": "Roseville, CA",
    "Yard": "Roseville, CA",
    "lat": 38.7521235,
    "lng": -121.2880059,
    "dwell_time": 20.8,
    "Average": 27.07777778,
    "indicator": -1.043369947,
    "congestion_level": "Low"
  },
  {
    "date": "2025-09-19 0:00:00",
    "company": "UP",
    "location": "Anthony, NM",
    "Yard": "Anthony, NM",
    "lat": 31.90796865,
    "lng": -106.7478105,
    "dwell_time": 25.6,
    "Average": 21.11,
    "indicator": 1.11620604,
    "congestion_level": "High"
  },
  {
    "date": "2025-09-19 0:00:00",
    "company": "UP",
    "location": "West Colton, CA",
    "Yard": "West Colton, CA",
    "lat": 34.0669931,
    "lng": -117.3529857,
    "dwell_time": 19.8,
    "Average": 29.63111111,
    "indicator": -1.442777593,
    "congestion_level": "Low"
  },
  {
    "date": "5/7/2025",
    "company": "CPKC",
    "location": "Albany, NY",
    "Yard": "Albany, NY",
    "lat": 42.63336715,
    "lng": -73.7611767,
    "dwell_time": 14.919077,
    "Average": null,
    "indicator": null,
    "congestion_level": "Low"
  },
  {
    "date": "5/7/2025",
    "company": "CPKC",
    "location": "Glenwood, MN",
    "Yard": "Glenwood, MN",
    "lat": 45.64988169,
    "lng": -95.36640325,
    "dwell_time": 22.406757,
    "Average": null,
    "indicator": null,
    "congestion_level": "Average"
  },
  {
    "date": "5/7/2025",
    "company": "CPKC",
    "location": "La Crosse, WI",
    "Yard": "La Crosse, WI",
    "lat": 43.84106914,
    "lng": -91.23753209,
    "dwell_time": 26.699513,
    "Average": null,
    "indicator": null,
    "congestion_level": "High"
  },
  {
    "date": "5/7/2025",
    "company": "CPKC",
    "location": "Mason City, IA",
    "Yard": "Mason City, IA",
    "lat": 43.1417676,
    "lng": -93.19591338,
    "dwell_time": 20.968754,
    "Average": null,
    "indicator": null,
    "congestion_level": "Average"
  },
  {
    "date": "5/7/2025",
    "company": "CPKC",
    "location": "Milwaukee, WI",
    "Yard": "Milwaukee, WI",
    "lat": 43.02753366,
    "lng": -87.9349538,
    "dwell_time": 30.099702,
    "Average": null,
    "indicator": null,
    "congestion_level": "Very High"
  },
  {
    "date": "5/7/2025",
    "company": "CPKC",
    "location": "Saratoga Springs, NY",
    "Yard": "Saratoga Springs, NY",
    "lat": 43.06684433,
    "lng": -73.8161988,
    "dwell_time": 17.332243,
    "Average": null,
    "indicator": null,
    "congestion_level": "Low"
  },
  {
    "date": "5/7/2025",
    "company": "CPKC",
    "location": "Wylie, TX",
    "Yard": "Wylie, TX",
    "lat": 33.02619265,
    "lng": -96.50913366,
    "dwell_time": 11.15,
    "Average": null,
    "indicator": null,
    "congestion_level": "Low"
  },
  {
    "date": "5/7/2025",
    "company": "CPKC",
    "location": "Artesia, MS",
    "Yard": "Artesia, MS",
    "lat": 33.41421071,
    "lng": -88.64338396,
    "dwell_time": 10.6,
    "Average": null,
    "indicator": null,
    "congestion_level": "Low"
  },
  {
    "date": "5/7/2025",
    "company": "CPKC",
    "location": "Baton Rouge, LA",
    "Yard": "Baton Rouge, LA",
    "lat": 30.46068888,
    "lng": -91.17492516,
    "dwell_time": 9.09,
    "Average": null,
    "indicator": null,
    "congestion_level": "Very Low"
  },
  {
    "date": "5/7/2025",
    "company": "CPKC",
    "location": "Whittington, LA",
    "Yard": "Whittington, LA",
    "lat": 31.18994913,
    "lng": -92.34272999,
    "dwell_time": 17.69,
    "Average": null,
    "indicator": null,
    "congestion_level": "Low"
  },
  {
    "date": "5/7/2025",
    "company": "CPKC",
    "location": "Beaumont, TX",
    "Yard": "Beaumont, TX",
    "lat": 30.04787963,
    "lng": -94.07457009,
    "dwell_time": 17.05,
    "Average": null,
    "indicator": null,
    "congestion_level": "Low"
  }
]