[
  {
    "date": "2025-09-05 0:00:00",
    "company": "BNSF",
    "location": "Barstow, CA",
    "Yard": "Barstow, CA",
    "lat": 34.8957957,
    "lng": -117.0172826,
    "dwell_time": 25.7,
    "Average": 32.60930233,
    "indicator": -1.552417713,
    "congestion_level": "Low"
  },
  {
    "date": "2025-09-05 0:00:00",
    "company": "BNSF",
    "location": "Denver, CO",
    "Yard": "Denver, CO",
    "lat": 39.7392358,
    "lng": -104.990251,
    "dwell_time": 28.9,
    "Average": 31.53488372,
    "indicator": -0.6934375192,
    "congestion_level": "Average"
  },
  {
    "date": "2025-09-05 0:00:00",
    "company": "BNSF",
    "location": "Fort Worth, TX",
    "Yard": "Fort Worth, TX",
    "lat": 32.7554883,
    "lng": -97.3307658,
    "dwell_time": 25.1,
    "Average": 26.00930233,
    "indicator": -0.1316619718,
    "congestion_level": "Average"
  },
  {
    "date": "2025-09-05 0:00:00",
    "company": "BNSF",
    "location": "Galesburg, IL",
    "Yard": "Galesburg, IL",
    "lat": 40.9478158,
    "lng": -90.3712395,
    "dwell_time": 27.9,
    "Average": 32.26744186,
    "indicator": -0.9861485829,
    "congestion_level": "Average"
  },
  {
    "date": "2025-09-05 0:00:00",
    "company": "BNSF",
    "location": "Kansas City, KS",
    "Yard": "Kansas City, KS",
    "lat": 39.0997265,
    "lng": -94.5785667,
    "dwell_time": 23.3,
    "Average": 33.69069767,
    "indicator": -1.561212264,
    "congestion_level": "Low"
  },
  {
    "date": "2025-09-05 0:00:00",
    "company": "BNSF",
    "location": "Lincoln, NE",
    "Yard": "Lincoln, NE",
    "lat": 40.813616,
    "lng": -96.7025955,
    "dwell_time": 23.5,
    "Average": 28.78604651,
    "indicator": -1.531380986,
    "congestion_level": "Low"
  },
  {
    "date": "2025-09-05 0:00:00",
    "company": "BNSF",
    "location": "Memphis, TN",
    "Yard": "Memphis, TN",
    "lat": 35.1495343,
    "lng": -90.0489801,
    "dwell_time": 17.0,
    "Average": 17.12790698,
    "indicator": -0.05349323014,
    "congestion_level": "Average"
  },
  {
    "date": "2025-09-05 0:00:00",
    "company": "BNSF",
    "location": "Northtown, MN",
    "Yard": "Northtown, MN",
    "lat": 45.128403,
    "lng": -93.259694,
    "dwell_time": 34.8,
    "Average": 30.39534884,
    "indicator": 1.216473501,
    "congestion_level": "High"
  },
  {
    "date": "2025-09-05 0:00:00",
    "company": "BNSF",
    "location": "Pasco, WA",
    "Yard": "Pasco, WA",
    "lat": 46.2305049,
    "lng": -119.0922316,
    "dwell_time": 23.2,
    "Average": 28.97906977,
    "indicator": -1.777882454,
    "congestion_level": "Low"
  },
  {
    "date": "2025-09-05 0:00:00",
    "company": "BNSF",
    "location": "Tulsa, OK",
    "Yard": "Tulsa, OK",
    "lat": 36.1539816,
    "lng": -95.992775,
    "dwell_time": 22.5,
    "Average": 25.25813953,
    "indicator": -0.9402514458,
    "congestion_level": "Average"
  },
  {
    "date": "2025-09-05 0:00:00",
    "company": "CN",
    "location": "Baton Rouge, LA",
    "Yard": "Baton Rouge, LA",
    "lat": 30.4514677,
    "lng": -91.1871466,
    "dwell_time": 18.45,
    "Average": 14.64790698,
    "indicator": 1.247788462,
    "congestion_level": "High"
  },
  {
    "date": "2025-09-05 0:00:00",
    "company": "CN",
    "location": "Champaign, IL",
    "Yard": "Champaign, IL",
    "lat": 40.1164204,
    "lng": -88.2433829,
    "dwell_time": 18.21,
    "Average": 18.63953488,
    "indicator": -0.1194515375,
    "congestion_level": "Average"
  },
  {
    "date": "2025-09-05 0:00:00",
    "company": "CN",
    "location": "Fond Du Lac, WI",
    "Yard": "Fond Du Lac, WI",
    "lat": 43.7730448,
    "lng": -88.4470508,
    "dwell_time": 21.76,
    "Average": 20.52488372,
    "indicator": 0.4008591452,
    "congestion_level": "Average"
  },
  {
    "date": "2025-09-05 0:00:00",
    "company": "CN",
    "location": "Geismar, LA",
    "Yard": "Geismar, LA",
    "lat": 30.2193468,
    "lng": -91.0065088,
    "dwell_time": 16.02,
    "Average": 14.63837209,
    "indicator": 0.5911167127,
    "congestion_level": "Average"
  },
  {
    "date": "2025-09-05 0:00:00",
    "company": "CN",
    "location": "Jackson, MS",
    "Yard": "Jackson, MS",
    "lat": 32.2987573,
    "lng": -90.1848103,
    "dwell_time": 13.23,
    "Average": 11.77465116,
    "indicator": 0.7378318363,
    "congestion_level": "Average"
  },
  {
    "date": "2025-09-05 0:00:00",
    "company": "CN",
    "location": "Gary, IN",
    "Yard": "Gary, IN",
    "lat": 41.5933696,
    "lng": -87.3464271,
    "dwell_time": 23.67,
    "Average": 22.75651163,
    "indicator": 0.3330353454,
    "congestion_level": "Average"
  },
  {
    "date": "2025-09-05 0:00:00",
    "company": "CN",
    "location": "Markham, ON",
    "Yard": "Markham, ON",
    "lat": 43.8561002,
    "lng": -79.3370188,
    "dwell_time": 12.9,
    "Average": 10.78976744,
    "indicator": 1.245712034,
    "congestion_level": "High"
  },
  {
    "date": "2025-09-05 0:00:00",
    "company": "CN",
    "location": "Memphis, TN",
    "Yard": "Memphis, TN",
    "lat": 35.1495343,
    "lng": -90.0489801,
    "dwell_time": 21.26,
    "Average": 20.91581395,
    "indicator": 0.1317623843,
    "congestion_level": "Average"
  },
  {
    "date": "2025-09-05 0:00:00",
    "company": "CN",
    "location": "Proctor, MN",
    "Yard": "Proctor, MN",
    "lat": 46.7471638,
    "lng": -92.2254695,
    "dwell_time": 11.2,
    "Average": 8.966976744,
    "indicator": 1.046417545,
    "congestion_level": "High"
  },
  {
    "date": "2025-09-05 0:00:00",
    "company": "CN",
    "location": "Stevens Point, WI",
    "Yard": "Stevens Point, WI",
    "lat": 44.5235792,
    "lng": -89.574563,
    "dwell_time": 18.29,
    "Average": 20.24093023,
    "indicator": -0.8916391176,
    "congestion_level": "Average"
  },
  {
    "date": "2025-09-05 0:00:00",
    "company": "CSX",
    "location": "Baltimore, MD",
    "Yard": "Baltimore, MD",
    "lat": 39.2903848,
    "lng": -76.6121893,
    "dwell_time": 14.29,
    "Average": 17.22615385,
    "indicator": -0.6101574665,
    "congestion_level": "Average"
  },
  {
    "date": "2025-09-05 0:00:00",
    "company": "CSX",
    "location": "Chicago, IL",
    "Yard": "Chicago, IL",
    "lat": 41.8781136,
    "lng": -87.6297982,
    "dwell_time": 14.34,
    "Average": 13.45466667,
    "indicator": 0.3317848636,
    "congestion_level": "Average"
  },
  {
    "date": "2025-09-05 0:00:00",
    "company": "CSX",
    "location": "Cincinnati, OH",
    "Yard": "Cincinnati, OH",
    "lat": 39.1031182,
    "lng": -84.5120196,
    "dwell_time": 22.75,
    "Average": 25.53883721,
    "indicator": -0.5883792274,
    "congestion_level": "Average"
  },
  {
    "date": "2025-09-05 0:00:00",
    "company": "CSX",
    "location": "Indianapolis, IN",
    "Yard": "Indianapolis, IN",
    "lat": 39.768403,
    "lng": -86.158068,
    "dwell_time": 22.14,
    "Average": 26.77325581,
    "indicator": -1.051791695,
    "congestion_level": "Low"
  },
  {
    "date": "2025-09-05 0:00:00",
    "company": "CSX",
    "location": "Jacksonville, FL",
    "Yard": "Jacksonville, FL",
    "lat": 30.3321838,
    "lng": -81.655651,
    "dwell_time": 18.49,
    "Average": 19.315,
    "indicator": -0.4248127936,
    "congestion_level": "Average"
  },
  {
    "date": "2025-09-05 0:00:00",
    "company": "CSX",
    "location": "Louisville, KY",
    "Yard": "Louisville, KY",
    "lat": 38.2526647,
    "lng": -85.7584557,
    "dwell_time": 28.04,
    "Average": 27.81883721,
    "indicator": 0.04186239023,
    "congestion_level": "Average"
  },
  {
    "date": "2025-09-05 0:00:00",
    "company": "CSX",
    "location": "Nashville, TN",
    "Yard": "Nashville, TN",
    "lat": 36.1626638,
    "lng": -86.7816016,
    "dwell_time": 26.94,
    "Average": 28.65953488,
    "indicator": -0.3467158914,
    "congestion_level": "Average"
  },
  {
    "date": "2025-09-05 0:00:00",
    "company": "CSX",
    "location": "Selkirk, NY",
    "Yard": "Selkirk, NY",
    "lat": 42.5319998,
    "lng": -73.7985008,
    "dwell_time": 25.66,
    "Average": 28.11465116,
    "indicator": -0.5381821205,
    "congestion_level": "Average"
  },
  {
    "date": "2025-09-05 0:00:00",
    "company": "CSX",
    "location": "Toledo, OH",
    "Yard": "Toledo, OH",
    "lat": 41.6528052,
    "lng": -83.5378674,
    "dwell_time": 19.6,
    "Average": 28.47930233,
    "indicator": -1.469954964,
    "congestion_level": "Low"
  },
  {
    "date": "2025-09-05 0:00:00",
    "company": "CSX",
    "location": "Waycross, GA",
    "Yard": "Waycross, GA",
    "lat": 31.2135511,
    "lng": -82.3540178,
    "dwell_time": 24.5,
    "Average": 26.90627907,
    "indicator": -0.3732519652,
    "congestion_level": "Average"
  },
  {
    "date": "2025-09-05 0:00:00",
    "company": "NS",
    "location": "Atlanta, GA",
    "Yard": "Atlanta, GA",
    "lat": 33.7489954,
    "lng": -84.3879824,
    "dwell_time": 21.1,
    "Average": 17.28823529,
    "indicator": 1.061388656,
    "congestion_level": "High"
  },
  {
    "date": "2025-09-05 0:00:00",
    "company": "NS",
    "location": "Bellevue, OH",
    "Yard": "Bellevue, OH",
    "lat": 41.2736647,
    "lng": -82.8415763,
    "dwell_time": 27.8,
    "Average": 28.43488372,
    "indicator": -0.1362588859,
    "congestion_level": "Average"
  },
  {
    "date": "2025-09-05 0:00:00",
    "company": "NS",
    "location": "Birmingham, AL",
    "Yard": "Birmingham, AL",
    "lat": 33.5185892,
    "lng": -86.8103567,
    "dwell_time": 29.5,
    "Average": 28.31627907,
    "indicator": 0.3196804233,
    "congestion_level": "Average"
  },
  {
    "date": "2025-09-05 0:00:00",
    "company": "NS",
    "location": "Chattanooga, TN",
    "Yard": "Chattanooga, TN",
    "lat": 35.0456297,
    "lng": -85.3096801,
    "dwell_time": 26.1,
    "Average": 28.62790698,
    "indicator": -0.6229813367,
    "congestion_level": "Average"
  },
  {
    "date": "2025-09-05 0:00:00",
    "company": "NS",
    "location": "Pittsburgh, PA",
    "Yard": "Pittsburgh, PA",
    "lat": 40.4406248,
    "lng": -79.9958864,
    "dwell_time": 31.8,
    "Average": 26.93023256,
    "indicator": 1.189289885,
    "congestion_level": "High"
  },
  {
    "date": "2025-09-05 0:00:00",
    "company": "NS",
    "location": "Decatur, IL",
    "Yard": "Decatur, IL",
    "lat": 39.8403147,
    "lng": -88.9548001,
    "dwell_time": 37.5,
    "Average": 23.9627907,
    "indicator": 2.431410155,
    "congestion_level": "Very High"
  },
  {
    "date": "2025-09-05 0:00:00",
    "company": "NS",
    "location": "Elkhart, IN",
    "Yard": "Elkhart, IN",
    "lat": 41.6819935,
    "lng": -85.9766671,
    "dwell_time": 25.7,
    "Average": 27.13488372,
    "indicator": -0.3331628347,
    "congestion_level": "Average"
  },
  {
    "date": "2025-09-05 0:00:00",
    "company": "NS",
    "location": "Harrisburg, PA",
    "Yard": "Harrisburg, PA",
    "lat": 40.3028161,
    "lng": -76.8928454,
    "dwell_time": 7.5,
    "Average": 13.53636364,
    "indicator": -2.355685041,
    "congestion_level": "Very Low"
  },
  {
    "date": "2025-09-05 0:00:00",
    "company": "NS",
    "location": "Macon, GA",
    "Yard": "Macon, GA",
    "lat": 32.8406946,
    "lng": -83.6324022,
    "dwell_time": 29.5,
    "Average": 28.64186047,
    "indicator": 0.1878796657,
    "congestion_level": "Average"
  },
  {
    "date": "2025-09-05 0:00:00",
    "company": "NS",
    "location": "Roanoke, VA",
    "Yard": "Roanoke, VA",
    "lat": 37.2739515,
    "lng": -79.9510329,
    "dwell_time": 40.0,
    "Average": 27.17272727,
    "indicator": 2.385682028,
    "congestion_level": "Very High"
  },
  {
    "date": "2025-09-05 0:00:00",
    "company": "UP",
    "location": "Proviso, IL",
    "Yard": "Proviso, IL",
    "lat": 41.8653429,
    "lng": -87.8721439,
    "dwell_time": 21.9,
    "Average": 26.56046512,
    "indicator": -0.7501370103,
    "congestion_level": "Average"
  },
  {
    "date": "2025-09-05 0:00:00",
    "company": "UP",
    "location": "Fort Worth, TX",
    "Yard": "Fort Worth, TX",
    "lat": 32.7554883,
    "lng": -97.3307658,
    "dwell_time": 22.1,
    "Average": 26.2255814,
    "indicator": -0.8420798765,
    "congestion_level": "Average"
  },
  {
    "date": "2025-09-05 0:00:00",
    "company": "UP",
    "location": "Englewood, TX",
    "Yard": "Englewood, TX",
    "lat": 29.7983826,
    "lng": -95.3079662,
    "dwell_time": 19.3,
    "Average": 26.5,
    "indicator": -1.569905562,
    "congestion_level": "Low"
  },
  {
    "date": "2025-09-05 0:00:00",
    "company": "UP",
    "location": "Livonia, LA",
    "Yard": "Livonia, LA",
    "lat": 30.5590803,
    "lng": -91.555945,
    "dwell_time": 21.5,
    "Average": 27.37906977,
    "indicator": -1.201556315,
    "congestion_level": "Low"
  },
  {
    "date": "2025-09-05 0:00:00",
    "company": "UP",
    "location": "North Little Rock, AR",
    "Yard": "North Little Rock, AR",
    "lat": 34.769536,
    "lng": -92.2670941,
    "dwell_time": 24.2,
    "Average": 25.48372093,
    "indicator": -0.3133116178,
    "congestion_level": "Average"
  },
  {
    "date": "2025-09-05 0:00:00",
    "company": "UP",
    "location": "North Platte West, NE",
    "Yard": "North Platte West, NE",
    "lat": 41.1402759,
    "lng": -100.7601454,
    "dwell_time": 20.2,
    "Average": 28.76511628,
    "indicator": -1.7996604,
    "congestion_level": "Low"
  },
  {
    "date": "2025-09-05 0:00:00",
    "company": "UP",
    "location": "Pine Bluff, AR",
    "Yard": "Pine Bluff, AR",
    "lat": 34.2284312,
    "lng": -92.0031955,
    "dwell_time": 24.7,
    "Average": 28.56046512,
    "indicator": -0.9458042645,
    "congestion_level": "Average"
  },
  {
    "date": "2025-09-05 0:00:00",
    "company": "UP",
    "location": "Roseville, CA",
    "Yard": "Roseville, CA",
    "lat": 38.7521235,
    "lng": -121.2880059,
    "dwell_time": 19.0,
    "Average": 27.40465116,
    "indicator": -1.411837272,
    "congestion_level": "Low"
  },
  {
    "date": "2025-09-05 0:00:00",
    "company": "UP",
    "location": "Anthony, NM",
    "Yard": "Anthony, NM",
    "lat": 31.90796865,
    "lng": -106.7478105,
    "dwell_time": 21.3,
    "Average": 20.83333333,
    "indicator": 0.1138430508,
    "congestion_level": "Average"
  },
  {
    "date": "2025-09-05 0:00:00",
    "company": "UP",
    "location": "West Colton, CA",
    "Yard": "West Colton, CA",
    "lat": 34.0669931,
    "lng": -117.3529857,
    "dwell_time": 20.4,
    "Average": 30.09069767,
    "indicator": -1.464658923,
    "congestion_level": "Low"
  },
  {
    "date": "7/2/2025",
    "company": "CPKC",
    "location": "Bensenville, IL",
    "Yard": "Bensenville, IL",
    "lat": 41.9550296,
    "lng": -87.9400657,
    "dwell_time": 29.810551,
    "Average": null,
    "indicator": null,
    "congestion_level": "Very High"
  },
  {
    "date": "7/2/2025",
    "company": "CPKC",
    "location": "Harvey, ND",
    "Yard": "Harvey, ND",
    "lat": 47.769723,
    "lng": -99.935404,
    "dwell_time": 12.196812,
    "Average": null,
    "indicator": null,
    "congestion_level": "Low"
  },
  {
    "date": "7/2/2025",
    "company": "CPKC",
    "location": "Jackson, MS",
    "Yard": "Jackson, MS",
    "lat": 32.2987573,
    "lng": -90.1848103,
    "dwell_time": 27.307326,
    "Average": null,
    "indicator": null,
    "congestion_level": "High"
  },
  {
    "date": "7/2/2025",
    "company": "CPKC",
    "location": "Kansas City, KS",
    "Yard": "Kansas City, KS",
    "lat": 39.0997265,
    "lng": -94.5785667,
    "dwell_time": 27.731231,
    "Average": null,
    "indicator": null,
    "congestion_level": "High"
  },
  {
    "date": "7/2/2025",
    "company": "CPKC",
    "location": "Laredo, TX",
    "Yard": "Laredo, TX",
    "lat": 27.5035613,
    "lng": -99.5075519,
    "dwell_time": 7.11474359,
    "Average": null,
    "indicator": null,
    "congestion_level": "Very Low"
  },
  {
    "date": "7/2/2025",
    "company": "CPKC",
    "location": "Meridian, MS",
    "Yard": "Meridian, MS",
    "lat": 32.3610377,
    "lng": -88.6991015,
    "dwell_time": 6.833256,
    "Average": null,
    "indicator": null,
    "congestion_level": "Very Low"
  },
  {
    "date": "7/2/2025",
    "company": "CPKC",
    "location": "Nahant, IA",
    "Yard": "Nahant, IA",
    "lat": 41.4875323,
    "lng": -90.6379164,
    "dwell_time": 30.00001,
    "Average": null,
    "indicator": null,
    "congestion_level": "Very High"
  },
  {
    "date": "7/2/2025",
    "company": "CPKC",
    "location": "New Orleans, LA",
    "Yard": "New Orleans, LA",
    "lat": 29.9725656,
    "lng": -90.1399969,
    "dwell_time": 52.402806,
    "Average": null,
    "indicator": null,
    "congestion_level": "Very High"
  },
  {
    "date": "7/2/2025",
    "company": "CPKC",
    "location": "Shreveport, LA",
    "Yard": "Shreveport, LA",
    "lat": 32.5251516,
    "lng": -93.7501789,
    "dwell_time": 59.749273,
    "Average": null,
    "indicator": null,
    "congestion_level": "Very High"
  },
  {
    "date": "7/2/2025",
    "company": "CPKC",
    "location": "St. Paul, MN",
    "Yard": "St. Paul, MN",
    "lat": 44.9537029,
    "lng": -93.0899578,
    "dwell_time": 20.989468,
    "Average": null,
    "indicator": null,
    "congestion_level": "Average"
  },
  {
    "date": "5/7/2025",
    "company": "CPKC",
    "location": "Albany, NY",
    "Yard": "Albany, NY",
    "lat": 42.63336715,
    "lng": -73.7611767,
    "dwell_time": 14.919077,
    "Average": null,
    "indicator": null,
    "congestion_level": "Low"
  },
  {
    "date": "5/7/2025",
    "company": "CPKC",
    "location": "Glenwood, MN",
    "Yard": "Glenwood, MN",
    "lat": 45.64988169,
    "lng": -95.36640325,
    "dwell_time": 22.406757,
    "Average": null,
    "indicator": null,
    "congestion_level": "Average"
  },
  {
    "date": "5/7/2025",
    "company": "CPKC",
    "location": "La Crosse, WI",
    "Yard": "La Crosse, WI",
    "lat": 43.84106914,
    "lng": -91.23753209,
    "dwell_time": 26.699513,
    "Average": null,
    "indicator": null,
    "congestion_level": "High"
  },
  {
    "date": "5/7/2025",
    "company": "CPKC",
    "location": "Mason City, IA",
    "Yard": "Mason City, IA",
    "lat": 43.1417676,
    "lng": -93.19591338,
    "dwell_time": 20.968754,
    "Average": null,
    "indicator": null,
    "congestion_level": "Average"
  },
  {
    "date": "5/7/2025",
    "company": "CPKC",
    "location": "Milwaukee, WI",
    "Yard": "Milwaukee, WI",
    "lat": 43.02753366,
    "lng": -87.9349538,
    "dwell_time": 30.099702,
    "Average": null,
    "indicator": null,
    "congestion_level": "Very High"
  },
  {
    "date": "5/7/2025",
    "company": "CPKC",
    "location": "Saratoga Springs, NY",
    "Yard": "Saratoga Springs, NY",
    "lat": 43.06684433,
    "lng": -73.8161988,
    "dwell_time": 17.332243,
    "Average": null,
    "indicator": null,
    "congestion_level": "Low"
  },
  {
    "date": "5/7/2025",
    "company": "CPKC",
    "location": "Wylie, TX",
    "Yard": "Wylie, TX",
    "lat": 33.02619265,
    "lng": -96.50913366,
    "dwell_time": 11.15,
    "Average": null,
    "indicator": null,
    "congestion_level": "Low"
  },
  {
    "date": "5/7/2025",
    "company": "CPKC",
    "location": "Artesia, MS",
    "Yard": "Artesia, MS",
    "lat": 33.41421071,
    "lng": -88.64338396,
    "dwell_time": 10.6,
    "Average": null,
    "indicator": null,
    "congestion_level": "Low"
  },
  {
    "date": "5/7/2025",
    "company": "CPKC",
    "location": "Baton Rouge, LA",
    "Yard": "Baton Rouge, LA",
    "lat": 30.46068888,
    "lng": -91.17492516,
    "dwell_time": 9.09,
    "Average": null,
    "indicator": null,
    "congestion_level": "Very Low"
  },
  {
    "date": "5/7/2025",
    "company": "CPKC",
    "location": "Whittington, LA",
    "Yard": "Whittington, LA",
    "lat": 31.18994913,
    "lng": -92.34272999,
    "dwell_time": 17.69,
    "Average": null,
    "indicator": null,
    "congestion_level": "Low"
  },
  {
    "date": "5/7/2025",
    "company": "CPKC",
    "location": "Beaumont, TX",
    "Yard": "Beaumont, TX",
    "lat": 30.04787963,
    "lng": -94.07457009,
    "dwell_time": 17.05,
    "Average": null,
    "indicator": null,
    "congestion_level": "Low"
  }
]